[
      {"id": 1,"type":"premiums", "nom": "Brioche d'oree de Yoff", "adresse": "Avenue Cheikh Anta DIOP KM 12", "telephone": "776665541", "image": "assets/images/nightlife.png", "lattitude": "14.755853", "longitude": "-17.475568100000032", "description": "L'excellence culinaire espagnole et des cuisines du monde. Le White Cheese est un paradis en plein coeur de Dakar avec une grande salle climatisée."},
      {"id": 2,"type":"Silver", "nom": "Brioche d'oree de Grand Dakar", "adresse": "Avenue Cheikh Anta DIOP KM 12", "telephone": "776665541", "image": "assets/images/nightlife.png", "lattitude": "14.6939535", "longitude": "-17.462762500000053", "description": "L'excellence culinaire espagnole et des cuisines du monde. Le White Cheese est un paradis en plein coeur de Dakar avec une grande salle climatisée."},
      {"id": 3,"type":"Gold", "nom": "Brioche d'oree de l'UCAD", "adresse": "Avenue Cheikh Anta DIOP KM 12", "telephone": "776665541", "image": "assets/images/nightlife.png", "lattitude": "14.76434345", "longitude": "-17.7554667", "description": "L'excellence culinaire espagnole et des cuisines du monde. Le White Cheese est un paradis en plein coeur de Dakar avec une grande salle climatisée."},
      {"id": 4,"type":"Silver", "nom": "Le white Cheese", "adresse": "Avenue Cheikh Anta DIOP KM 12", "telephone": "776665541", "image": "assets/images/nightlife.png", "lattitude": "14.7274716", "longitude": "-17.47047150000003", "description": "L'excellence culinaire espagnole et des cuisines du monde. Le White Cheese est un paradis en plein coeur de Dakar avec une grande salle climatisée."},
      {"id": 5,"type":"premiums","nom": "Brioche d'oree de Ouest foire", "adresse": "Ouest foire", "telephone": "777765841", "image": "assets/images/nightlife.png", "lattitude": "14.7498237", "longitude": "-17.47019290000003", "description": "L'excellence culinaire espagnole et des cuisines du monde. Le White Cheese est un paradis en plein coeur de Dakar avec une grande salle climatisée."},
      {"id": 6,"type":"Gold", "nom": "Qualshore", "adresse": "Ouest foire", "telephone": "777765342", "image": "assets/images/nightlife.png", "lattitude": "14.752979", "longitude": "-17.468535799999998", "description": "L'excellence culinaire espagnole et des cuisines du monde. Le White Cheese est un paradis en plein coeur de Dakar avec une grande salle climatisée."},
      {"id": 7,"type":"premiums", "nom": "Auto ecole la planete", "adresse": "Ouest foire", "telephone": "777765342", "image": "assets/images/nightlife.png", "lattitude": "14.7533811", "longitude": "-17.467545599999994", "description": "L'excellence culinaire espagnole et des cuisines du monde. Le White Cheese est un paradis en plein coeur de Dakar avec une grande salle climatisée."},
      {"id": 8,"type":"Gold", "nom": "University of management", "adresse": "Ouest foire", "telephone": "777765342", "image": "assets/images/nightlife.png", "lattitude": "14.7535342", "longitude": "-17.4678222", "description": "L'excellence culinaire espagnole et des cuisines du monde. Le White Cheese est un paradis en plein coeur de Dakar avec une grande salle climatisée."},
      {"id": 9,"type":"premiums", "nom": "Maison d'hotes keur Mindolo", "adresse": "Ouest foire", "telephone": "777765342", "image": "assets/images/nightlife.png", "lattitude": "14.752803", "longitude": "-17.468188000000055", "description": "L'excellence culinaire espagnole et des cuisines du monde. Le White Cheese est un paradis en plein coeur de Dakar avec une grande salle climatisée."}
]